GPS sentence prefix, Latitude, Heading, Longitude, Heading, Time, Data Valid, Checksum, PMS 1.0, PMS 2.5, PMS 10.0, Gas ADC, Gas Oxidizing, Gas Reducing, Gas NH3, Noise Low, Noise Mid, Noise High, Noise Total, Temperature, Humidity, Pressure, Altitude, Lux, Proximity
$GPGLL,5043.87071,N,00157.18412,W,072506.00,A,A*7B,3,4,5,None,9531.914893617022,384000.00000000006,448918.0327868857,0.2128092702964557,0.08031912827192719,0.10047470195295569,0.13120103350711287,22.803405087155284,51.481510172662276,1004.0959592418992,76.49190672576424,239.2812,1298
$GPGLL,5043.86732,N,00157.18390,W,072507.00,A,A*76,3,4,5,None,9601.703940362087,393635.0364963503,453090.9090909091,0.19769197759108195,0.11387611605859223,0.17523466128124435,0.16226758497697283,22.803083487159984,51.40010100147784,1004.1120619429618,76.35685638783357,116.7952,1283
$GPGLL,5043.86397,N,00157.18276,W,072508.00,A,A*7B,3,4,5,None,9601.703940362087,400296.29629629647,453090.9090909091,0.2557460881199957,0.13871028247048076,0.06263820136240815,0.1523648573176282,22.79922428730506,51.34767881431936,1004.1258378875174,76.2413215127964,102.5735,1237
$GPGLL,5043.86064,N,00157.18276,W,072509.00,A,A*75,3,4,5,None,9601.703940362087,417846.15384615416,457333.3333333335,0.27434963301526255,0.1532330780366703,0.09119217527024556,0.1729249621073928,22.79697308746529,51.30692382163514,1004.1687677323386,75.88128951349968,129.8323,1225
$GPGLL,5043.85739,N,00157.18485,W,072510.00,A,A*7B,3,4,5,None,9601.703940362087,425250.0000000001,461647.05882352975,0.23829344139515202,0.10332695706600546,0.07615874969526598,0.13925971605214116,22.781857889983804,51.38796591951448,1004.2210584984458,75.44276879643812,115.43245,1219
$GPGLL,5043.85414,N,00157.18665,W,072511.00,A,A*7A,3,4,5,None,9671.641791044776,400296.29629629647,461647.05882352975,0.2508158593792232,0.15685063358607637,0.2514320871198368,0.21969952669504544,22.768029094487815,51.46321749151589,1004.287031675571,74.88953104960663,61.5083,1253
$GPGLL,5043.85034,N,00157.18682,W,072512.00,A,A*76,3,4,5,None,9671.641791044776,344000.0000000002,461647.05882352975,0.3604700156006796,0.13030770426686375,0.05994880820627403,0.18357550935793912,22.75838109887502,51.58507256102683,1004.3546958552578,74.3221434639972,28.6206,1229
$GPGLL,5043.84702,N,00157.18410,W,072513.00,A,A*7D,3,4,5,None,9741.728922091783,351947.01986754977,461647.05882352975,0.5664808203525621,0.15779875465072224,0.13294136244000235,0.28574031248109555,22.743265907805473,51.83467042197876,1004.4451911715707,73.5633572655309,19.0211,1222
$GPGLL,5043.84393,N,00157.18015,W,072514.00,A,A*77,3,4,5,None,9741.728922091783,365917.8082191783,470495.7264957265,0.5333773323018708,0.14934220916710184,0.11787447406325666,0.2668646718440764,22.679589173002114,52.05393864371451,1004.5594268702221,72.6055914649079,14.2213,1241
$GPGLL,5043.84036,N,00157.17698,W,072515.00,A,A*76,3,4,5,None,9811.965811965812,421519.3798449612,470495.7264957265,0.29196729722195996,0.18455687732708223,0.2829208124266247,0.25314832899188894,22.60111891464994,52.17977797139298,1004.6765568776699,71.6236509962254,10.19195,1240
$GPGLL,5043.83622,N,00157.17486,W,072516.00,A,A*7C,3,4,5,None,9811.965811965812,440774.1935483872,479652.1739130438,0.24963640414463076,0.12248450552567461,0.1466350920141336,0.17291866722814633,22.574747777448284,52.179099842147,1004.7656311846324,70.87697300138129,5.6292,1236
$GPGLL,5043.83187,N,00157.17396,W,072517.00,A,A*73,3,4,5,None,9811.965811965812,444813.0081300816,484350.877192983,0.29872470467966133,0.14786197639614898,0.10673676353026425,0.18444114820202487,22.537120680285646,52.19556067451308,1004.9596125420546,69.25108223607462,6.6958,1234
$GPGLL,5043.82815,N,00157.17342,W,072518.00,A,A*76,3,5,5,None,9882.352941176472,448918.0327868857,489132.7433628319,0.2404338770081954,0.17834921355936195,0.25982468993919733,0.22620259350225158,22.511071160597293,52.27621804333768,1005.1488290419118,67.66537381909545,9.12525,1230
$GPGLL,5043.82418,N,00157.17205,W,072519.00,A,A*74,3,5,5,None,9882.352941176472,448918.0327868857,489132.7433628319,0.2521408120813458,0.09957552128109656,0.07857365755406893,0.14342999697217043,22.499493598685604,52.322388962572866,1005.3030462186805,66.37315220974726,10.31035,1232
$GPGLL,5043.82147,N,00157.17091,W,072520.00,A,A*7E,3,5,5,None,9882.352941176472,444813.0081300816,489132.7433628319,0.2690864268937413,0.1575921749023946,0.151742087882523,0.19280689655955296,22.498528801926135,52.409496128447,1005.4493225051509,65.14761748404392,11.0214,1218
$GPGLL,5043.81840,N,00157.16778,W,072521.00,A,A*73,5,6,6,None,9882.352941176472,429039.3700787404,489132.7433628319,0.2596560605188339,0.13573730673208667,0.07687556494709147,0.15742297739933733,22.497885604092176,52.51403491312399,1005.5529300369132,64.27965825701793,15.05075,1251
$GPGLL,5043.81571,N,00157.16511,W,072522.00,A,A*72,5,6,6,None,9952.890792291222,421519.3798449612,489132.7433628319,0.2179858087416115,0.15241480216846,0.24643974590002632,0.20561345227003258,22.49338321938178,52.56038325193027,1005.6254492587562,63.672180563767704,18.132,1204
$GPGLL,5043.81269,N,00157.16546,W,072523.00,A,A*7F,5,6,6,None,10023.579849946409,351947.01986754977,489132.7433628319,0.3407724927377278,0.051392046944790395,0.027577176933858034,0.13991390553879207,22.471192897993113,52.69918490337454,1005.6796290955629,63.21835104565981,26.96135,1247
$GPGLL,5043.81050,N,00157.16418,W,072524.00,A,A*7A,5,7,7,None,10023.579849946409,407157.8947368421,489132.7433628319,0.23359025265367667,0.18147621784344978,0.2915131584501956,0.2355265429824407,22.412340332697955,52.84858094890144,1005.7614893114832,62.532698410744956,45.56825,1229
$GPGLL,5043.80710,N,00157.16448,W,072525.00,A,A*7C,5,7,7,None,10023.579849946409,417846.15384615416,484350.877192983,0.2773554323658519,0.11113092656749915,0.1590554520859895,0.18251393700644683,22.340623870169292,53.055629411497456,1005.8243906345634,62.00587418573989,72.47145,1233
$GPGLL,5043.80408,N,00157.16513,W,072526.00,A,A*7A,5,7,7,None,10094.42060085837,417846.15384615416,484350.877192983,0.2767216749418034,0.14498087488302397,0.22319120748262866,0.214964585769152,22.304604860989276,53.1649232224948,1005.8447780152902,61.8351272848141,52.20515,1245
$GPGLL,5043.80099,N,00157.16479,W,072527.00,A,A*7A,5,7,7,None,10094.42060085837,421519.3798449612,484350.877192983,0.43938905739972245,0.19497288039430194,0.17032976901576424,0.2682305689365962,22.245109207415613,53.436036969117865,1005.9022882023222,61.35348727110002,29.80585,1236
$GPGLL,5043.79801,N,00157.16525,W,072528.00,A,A*72,5,7,7,None,10094.42060085837,440774.1935483872,489132.7433628319,0.30498300766910347,0.10475126103838206,0.14066256083356726,0.18346560984701762,22.207803844481738,53.64967751215879,1005.9703993191349,60.78309474823224,21.27275,1224
$GPGLL,5043.79304,N,00157.16646,W,072529.00,A,A*7B,5,7,7,None,10094.42060085837,448918.0327868857,494000.00000000023,0.3272344225087759,0.16683811445886024,0.10684111787394233,0.2003045516138595,22.18239761468867,53.614120619799046,1006.0741511741094,59.91429106281756,31.7021,1233
$GPGLL,5043.78760,N,00157.16738,W,072530.00,A,A*7C,6,6,6,None,10165.413533834588,453090.9090909091,498954.9549549553,0.40399511529967325,0.10264137765935019,0.12545726012802053,0.21069791769568133,22.16438813963905,53.52656017929882,1006.183097902719,59.002064306176585,93.74495,1248
$GPGLL,5043.78119,N,00157.16704,W,072531.00,A,A*7A,6,6,6,None,10165.413533834588,453090.9090909091,498954.9549549553,0.4210403425982529,0.14786978453197813,0.2176971887186383,0.2622024386162898,22.148951449576998,53.508706625806006,1006.2596377283626,58.361233076996946,35.84975,1249
$GPGLL,5043.77627,N,00157.16623,W,072532.00,A,A*78,6,6,6,None,10236.559139784946,461647.05882352975,509137.6146788992,0.324064031492024,0.055157448833648016,0.03120486460830688,0.13680878164465965,22.136409140830278,53.45032227029498,1006.3391491602287,57.69556381010342,153.17,1213
$GPGLL,5043.77161,N,00157.16567,W,072533.00,A,A*7F,6,7,7,None,10307.857911733046,461647.05882352975,509137.6146788992,0.31547200314409596,0.11958769153022898,0.06916139657905992,0.16807369708446163,22.123545236219638,53.38612873923559,1006.4563209480298,56.71467986748068,51.67165,1223
$GPGLL,5043.76503,N,00157.16518,W,072534.00,A,A*71,6,7,7,None,10379.310344827587,470495.7264957265,514370.3703703706,0.36132548074703197,0.18312609330849208,0.10865040473382816,0.2177006595964507,22.11132452852437,53.35096644927135,1006.5512790878142,55.919821577537846,139.78815,1230
$GPGLL,5043.75799,N,00157.16394,W,072535.00,A,A*70,6,7,7,None,10379.310344827587,432888.8888888893,519700.9345794397,0.35191545930650453,0.1309922157680917,0.18852639468546858,0.22381135658668827,22.10489257776519,53.40300021499264,1006.6737678449141,54.89460468312875,99.1372,1219
$GPGLL,5043.75176,N,00157.16529,W,072536.00,A,A*74,6,7,7,None,10379.310344827587,453090.9090909091,519700.9345794397,0.31417827259779557,0.08813424573942331,0.06955491938445789,0.1572891459072256,22.10199820007192,53.4435299846035,1006.7255672088635,54.46108031743789,61.74535,1213
$GPGLL,5043.74541,N,00157.16544,W,072537.00,A,A*7F,6,7,7,None,10450.916936353831,466033.8983050852,525132.0754716988,0.40606702988162013,0.14978981592918056,0.20466364378337004,0.25350682986472356,22.095566249972126,53.46074996045564,1006.8148545780382,53.71385002325191,128.3511,1222
$GPGLL,5043.73735,N,00157.16552,W,072538.00,A,A*71,6,7,7,None,10450.916936353831,448918.0327868857,525132.0754716988,0.29736797103812324,0.1538270735225791,0.2416329365027171,0.23094266035447317,22.08913430032708,53.425754825121935,1006.9124396392988,52.897239168144495,116.3811,1234
$GPGLL,5043.73030,N,00157.16157,W,072539.00,A,A*73,7,8,8,None,10450.916936353831,475034.48275862087,530666.6666666667,0.3964425801645356,0.15973273970364987,0.06792160421967679,0.2080323080292874,22.07819998697414,53.39063123718292,1007.016084757313,52.02998674575557,104.41085,1195
$GPGLL,5043.72218,N,00157.16118,W,072540.00,A,A*7F,7,8,8,None,10522.678185745142,475034.48275862087,536307.6923076926,0.3527088931431241,0.08631001958918336,0.03565764481590818,0.15822551918273853,22.06533609059443,53.48888484831126,1007.1000343220459,51.3275902024962,118.2179,1224
$GPGLL,5043.71578,N,00157.15462,W,072541.00,A,A*77,7,8,8,None,10594.594594594595,466033.8983050852,542058.252427185,0.36409581733726853,0.18161144858424053,0.17199897281406668,0.23923541291185857,22.044753860170385,53.58690502676355,1007.1865435871384,50.60382653186864,54.27895,1206
$GPGLL,5043.70935,N,00157.15039,W,072542.00,A,A*7A,7,8,8,None,10522.678185745142,479652.1739130438,542058.252427185,0.457848043794821,0.10946172594637175,0.04797052833233995,0.20509343269117755,22.019669273137062,53.67898056390014,1007.2990209448444,49.662880910131236,55.28585,1224
$GPGLL,5043.70288,N,00157.14787,W,072543.00,A,A*75,7,8,8,None,10594.594594594595,470495.7264957265,547921.5686274517,0.37106712392402086,0.18330463975839892,0.27371510866845,0.27602895745028994,21.99844385874203,53.817555664358245,1007.3745246219734,49.03129168780967,101.68495,1202
$GPGLL,5043.69628,N,00157.14499,W,072544.00,A,A*78,7,8,8,None,10594.594594594595,453090.9090909091,547921.5686274517,0.31546470805437693,0.14665152360511144,0.13823215534926211,0.20011612900291684,21.971751299184167,53.97914442742328,1007.4777647046749,48.16774911328535,39.9977,1241
$GPGLL,5043.68923,N,00157.14271,W,072545.00,A,A*7C,7,8,8,None,10666.666666666668,479652.1739130438,553900.99009901,0.3239502805328796,0.11830280881911427,0.14798493347718117,0.19674600760972502,21.961781790996703,54.01943797591508,1007.536456345479,47.6768600002079,157.38665,1176
$GPGLL,5043.68312,N,00157.13893,W,072546.00,A,A*76,7,8,8,None,10666.666666666668,475034.48275862087,553900.99009901,0.30602510015196743,0.13318703490942546,0.1869529288206985,0.20872168796069712,21.952455477874924,54.08294368615526,1007.6575815559023,46.66385797190719,196.031,1258
$GPGLL,5043.67627,N,00157.13724,W,072547.00,A,A*78,7,8,8,None,10666.666666666668,479652.1739130438,560000.0000000003,0.3625404776558702,0.07512277698988724,0.044159694533723856,0.16060764972649377,21.93701882377429,54.157856388041054,1007.732390117259,46.03826352596413,195.56895,1284
$GPGLL,5043.67003,N,00157.13587,W,072548.00,A,A*7C,7,7,7,None,10666.666666666668,479652.1739130438,560000.0000000003,0.3128815611579398,0.15968761606721774,0.10701456052801613,0.1931945792510579,21.92222536605243,54.116817938333874,1007.8098857039229,45.390238201150005,58.8417,1257
$GPGLL,5043.66309,N,00157.13551,W,072549.00,A,A*7E,7,7,7,None,10738.894907908994,494000.00000000023,566222.2222222228,0.32332871879765795,0.10353075671469415,0.04731116756969466,0.1580568810273489,21.902286361624853,54.10461613322797,1007.8160612985743,45.33859903836016,93.27035,1263
$GPGLL,5043.65643,N,00157.13566,W,072550.00,A,A*7A,7,7,7,None,10811.279826464208,494000.00000000023,566222.2222222228,0.268060424395278,0.05689283520519947,0.02711387605774548,0.11735571188607431,21.88459853877439,54.121472548263775,1007.8557162288403,45.007018062707864,148.9726,1082
$GPGLL,5043.60094,N,00157.09095,W,072600.00,A,A*77,5,6,6,None,10811.279826464208,484350.877192983,572571.4285714285,0.3960663880589981,0.15705671935303453,0.10822118716809251,0.22044809819337505,21.861443575877,54.167148072903956,1007.9529682464871,44.193874644065914,158.0394,1223
$GPGLL,5043.59492,N,00157.08879,W,072601.00,A,A*75,5,6,6,None,10883.821932681869,489132.7433628319,572571.4285714285,0.26973107224721776,0.13897606418903802,0.13150924668554287,0.18007212770726622,21.843755760967564,54.18979688661594,1008.0623046506695,43.279767125046305,88.5896,1250
$GPGLL,5043.58880,N,00157.08718,W,072602.00,A,A*70,5,6,6,None,10883.821932681869,479652.1739130438,572571.4285714285,0.3550319532252523,0.10344580276393943,0.07098367041322749,0.17648714213413974,21.82703273912505,54.14870679528829,1008.1549308049123,42.50542853929988,90.36675,1264
$GPGLL,5043.58274,N,00157.08523,W,072603.00,A,A*7A,5,6,6,None,10956.521739130438,498954.9549549553,579051.5463917528,0.375967638469267,0.18924634808199153,0.12767702332017214,0.23096366995714357,21.814168878261103,54.16570495790186,1008.2454503791229,41.74875625054025,166.80935,1270
$GPGLL,5043.57660,N,00157.08324,W,072604.00,A,A*72,5,6,6,None,10956.521739130438,498954.9549549553,585666.6666666671,0.3200005893106706,0.17504747322289269,0.16779383577261536,0.22094729943539285,21.803877790879618,54.17698399553445,1008.350051746235,40.874439777313114,190.7751,1262
$GPGLL,5043.57042,N,00157.08129,W,072605.00,A,A*7A,5,6,6,None,10956.521739130438,484350.877192983,585666.6666666671,0.3084195335162029,0.17903718581098857,0.2724496016785944,0.2533021070019286,21.800018633411696,54.20584887369195,1008.388654145748,40.551797978305295,164.202,1264
$GPGLL,5043.56425,N,00157.07920,W,072606.00,A,A*73,5,6,6,None,11029.379760609361,484350.877192983,585666.6666666671,0.3280307888684826,0.10400685067337355,0.07330351907936733,0.16844705287374118,21.788441161990182,54.298235209703186,1008.441409712394,40.11087910163972,123.5509,1227
$GPGLL,5043.55822,N,00157.07661,W,072607.00,A,A*70,5,6,6,None,11029.379760609361,489132.7433628319,585666.6666666671,0.29597674173961347,0.13626430249492583,0.17965483978551058,0.20396529467334998,21.773647728429047,54.37312655334377,1008.5503867825053,39.200132981708926,182.80895,1263
$GPGLL,5043.55222,N,00157.07392,W,072608.00,A,A*7C,5,6,6,None,11102.396514161223,484350.877192983,585666.6666666671,0.3168382303281559,0.0946972324630207,0.057265243477650093,0.1562669020896089,21.757246315771134,54.418982989392866,1008.5970479465572,38.81019940153902,153.4761,1245
$GPGLL,5043.54602,N,00157.07143,W,072609.00,A,A*74,5,6,6,None,11102.396514161223,484350.877192983,585666.6666666671,0.32629736325609776,0.11030313309609052,0.11179705118411326,0.1827991825121005,21.740523309831133,54.49380170956059,1008.6299166667293,38.535533973731724,165.565,1271
$GPGLL,5043.53961,N,00157.06941,W,072610.00,A,A*7A,5,6,6,None,11102.396514161223,475034.48275862087,585666.6666666671,0.32051142745985356,0.10395082553909916,0.05794969505223201,0.16080398268372825,21.72765946119989,54.551349503940045,1008.7204108740493,37.77936216864643,174.74995,1277
$GPGLL,5043.53341,N,00157.06721,W,072611.00,A,A*7B,5,6,6,None,11175.572519083971,494000.00000000023,592421.0526315796,0.33056362384330096,0.1251664193777839,0.11451519211650134,0.19008174511252873,21.709328480043247,54.631898840935136,1008.782210589834,37.26299379878714,121.8327,1243
$GPGLL,5043.52687,N,00157.06587,W,072612.00,A,A*78,4,5,5,None,11175.572519083971,504000.0000000006,599319.1489361702,0.37025243086753307,0.15603630126810955,0.06714552509992569,0.19781141907852276,21.689711118335616,54.70080999406847,1008.8651639468924,36.56991615426157,29.33155,1227
$GPGLL,5043.52076,N,00157.06381,W,072613.00,A,A*71,4,5,5,None,11248.908296943233,498954.9549549553,599319.1489361702,0.332975679657455,0.12203649194430148,0.15809091642631753,0.204367696009358,21.670093760858276,54.86241426658805,1008.949769672739,35.86308045140682,30.63515,1234
$GPGLL,5043.51472,N,00157.06147,W,072614.00,A,A*7D,4,5,5,None,11248.908296943233,498954.9549549553,599319.1489361702,0.2669015819531269,0.15623699552352957,0.25204420847577447,0.22506092865081032,21.661089073596692,54.96061443854975,1008.9917030495855,35.51276724702712,145.83215,1255
$GPGLL,5043.50897,N,00157.05875,W,072615.00,A,A*71,4,5,5,None,11248.908296943233,498954.9549549553,599319.1489361702,0.2574724374477097,0.12881475822166932,0.15676358030865628,0.18101692532601177,21.645009277132182,55.13388587303951,1009.077007330145,34.80016805893834,172.9722,1259
$GPGLL,5043.50299,N,00157.05661,W,072616.00,A,A*7D,4,5,5,None,11248.908296943233,494000.00000000023,606365.5913978496,0.30403447554475915,0.17093493339886237,0.20709681047738387,0.22735540647366848,21.636004592353515,55.15676176383806,1009.1454773753136,34.22823089353241,180.7349,1242
$GPGLL,5043.49729,N,00157.05413,W,072617.00,A,A*7D,4,5,5,None,11322.404371584702,498954.9549549553,606365.5913978496,0.34822165275292544,0.13242882049458685,0.08883284899609423,0.1898277740812022,21.6170304380591,55.13876084116957,1009.1813345559063,33.928724798095075,196.3789,1247
$GPGLL,5043.49180,N,00157.05126,W,072618.00,A,A*74,4,5,5,None,11322.404371584702,498954.9549549553,606365.5913978496,0.35928785972075605,0.13281725769817782,0.06832118530536574,0.18680876757476653,21.597734691987807,55.08020402976429,1009.1735447865705,33.99379006784682,184.2903,1246
$GPGLL,5043.48686,N,00157.04774,W,072619.00,A,A*75,4,5,5,None,11396.06126914661,484350.877192983,606365.5913978496,0.23390320116864644,0.11508830913920813,0.15818960764153636,0.16906037264979698,21.57779575868044,55.06217561357166,1009.2211145781288,33.5964622660097,192.29,1240
$GPGLL,5043.48210,N,00157.04450,W,072620.00,A,A*71,4,5,5,None,11396.06126914661,484350.877192983,606365.5913978496,0.22696809463338044,0.17559319240193647,0.283881826780318,0.2288143712718783,21.565896719917895,55.09653888620451,1009.2965310365705,32.966575601396066,241.307,1231
$GPGLL,5043.47820,N,00157.04111,W,072621.00,A,A*76,4,5,5,None,11396.06126914661,484350.877192983,606365.5913978496,0.18764179258044847,0.09709423779948802,0.1415697058079554,0.14210191206263065,21.56107278572781,55.10217281713598,1009.3683905708469,32.36643221884566,236.1424,1246
$GPGLL,5043.47498,N,00157.03703,W,072622.00,A,A*78,4,5,5,None,11396.06126914661,461647.05882352975,599319.1489361702,0.2102698797776437,0.17608111660202094,0.28595865623496186,0.22410321753820883,21.551424918115025,55.142398835504835,1009.427517812828,31.872650021472914,209.3267,1241
$GPGLL,5043.47309,N,00157.03333,W,072623.00,A,A*71,4,5,5,None,11396.06126914661,448918.0327868857,592421.0526315796,0.23156106177788052,0.15165998673199985,0.15098675987475496,0.1780692694615451,21.544993006941603,55.22326907607192,1009.4586418941444,31.612736647284933,244.1099,1257
$GPGLL,5043.47231,N,00157.03176,W,072624.00,A,A*7F,4,4,4,None,11396.06126914661,457333.3333333335,592421.0526315796,0.23887766522077172,0.1312458345948341,0.10044645493821117,0.15685665158460568,21.54788736691337,55.29865347757094,1009.4898327839533,31.35227187321042,244.7564,1276
$GPGLL,5043.47239,N,00157.03203,W,072625.00,A,A*77,4,4,4,None,11396.06126914661,470495.7264957265,585666.6666666671,0.21348338488380048,0.10222097564158085,0.10227775684749583,0.13932737245762572,21.55078172697722,55.333497915761896,1009.5011207306184,31.258011580920154,247.00595,1297
$GPGLL,5043.47234,N,00157.03175,W,072626.00,A,A*7B,4,4,4,None,11469.879518072292,479652.1739130438,585666.6666666671,0.2115211653122976,0.11931621685985316,0.1611031230890396,0.16398016842039678,21.55946480772129,55.3974924880188,1009.5067883833879,31.210684020842095,229.22645,1287
$GPGLL,5043.47240,N,00157.03150,W,072627.00,A,A*7E,4,6,8,None,11469.879518072292,475034.48275862087,585666.6666666671,0.2507747542475004,0.14275471706746357,0.1361534092373818,0.17656096018411527,21.576509376036483,55.432811438294266,1009.5159474880982,31.134201653534497,223.1586,1291
$GPGLL,5043.47241,N,00157.03134,W,072628.00,A,A*72,4,7,9,None,11469.879518072292,466033.8983050852,579051.5463917528,0.2292277819699127,0.1187055991369381,0.1360740877985995,0.16133582296848345,21.597413096254627,55.4682621035757,1009.5147233090647,31.144424029576083,240.3106,1282
$GPGLL,5043.47229,N,00157.03149,W,072629.00,A,A*77,4,7,9,None,11469.879518072292,475034.48275862087,579051.5463917528,0.27615549376324694,0.1463378788188184,0.0762733953875639,0.16625558932320975,21.611563309590043,55.323935890858486,1009.520885868829,31.09296433552548,241.10355,1273
$GPGLL,5043.47228,N,00157.03140,W,072630.00,A,A*77,4,7,9,None,11469.879518072292,475034.48275862087,572571.4285714285,0.21199313940958997,0.1720128237725828,0.2785757102645585,0.22086055781557712,21.615422459063506,55.15029312666262,1009.5171377703429,31.124262338622476,237.30425,1280
$GPGLL,5043.47242,N,00157.03110,W,072631.00,A,A*7F,5,8,10,None,11469.879518072292,470495.7264957265,572571.4285714285,0.239090858680957,0.1488285270617105,0.14368855111502546,0.17720264561923096,21.611563309590043,55.08644866280305,1009.5275209073075,31.03755955069145,231.43985,1285
$GPGLL,5043.47228,N,00157.03128,W,072632.00,A,A*7B,5,8,10,None,11469.879518072292,466033.8983050852,566222.2222222228,0.2748390639118505,0.16812617653047607,0.09021919114886814,0.17772814386373156,21.6179952254701,55.266226620416205,1009.5196153068395,31.103573985648918,242.505,1280
$GPGLL,5043.47231,N,00157.03125,W,072633.00,A,A*7F,5,8,10,None,11469.879518072292,400296.29629629647,560000.0000000003,0.20274242964278408,0.09237444524682321,0.1270880588105657,0.14073497790005765,21.628607887666384,55.38821796312241,1009.5167719870619,31.127316768810118,242.1361,1267
$GPGLL,5043.47235,N,00157.03121,W,072634.00,A,A*78,5,8,10,None,11469.879518072292,377802.8169014087,553900.99009901,0.24570729668572375,0.133357245594817,0.1266512874887754,0.16857194325643873,21.635361400617718,55.475327726327784,1009.5193355652012,31.105909930515203,235.71835,1285
$GPGLL,5043.47251,N,00157.03081,W,072635.00,A,A*70,5,9,11,None,11469.879518072292,357422.8187919466,547921.5686274517,0.2843567253758869,0.1612309379915658,0.09215062372237841,0.17924609569661035,21.650154811691596,55.45844688747664,1009.5149183999271,31.142794943528965,231.43985,1278
$GPGLL,5043.47273,N,00157.03047,W,072636.00,A,A*79,6,9,12,None,11469.879518072292,380879.43262411345,542058.252427185,0.23017212255118755,0.06902994257752834,0.05318097812504976,0.11746101441792188,21.66526982114301,55.401026559596566,1009.5126760309831,31.161519628581377,239.62795,1283
$GPGLL,5043.47274,N,00157.03050,W,072637.00,A,A*79,5,8,8,None,11469.879518072292,387165.4676258995,542058.252427185,0.22908163696435171,0.10147445822204164,0.14691486678335447,0.15915698732324926,21.67877685299036,55.44202753886121,1009.5128244047627,31.160280646640363,237.8576,1280
$GPGLL,5043.47276,N,00157.03050,W,072638.00,A,A*74,5,8,9,None,11469.879518072292,374769.2307692309,536307.6923076926,0.26897242458645676,0.12243471898946773,0.11385784176468561,0.16842166178020337,21.69357027112419,55.44252256523569,1009.5017682386652,31.25260457400895,238.4661,1288
$GPGLL,5043.47284,N,00157.03035,W,072639.00,A,A*7B,5,8,9,None,11469.879518072292,317333.33333333355,530666.6666666667,0.218113321215801,0.09666551027046114,0.13046888089034037,0.14841590412553415,21.70900688391557,55.350345959319405,1009.5016986779988,31.25318543924748,231.43985,1275
$GPGLL,5043.47292,N,00157.03016,W,072640.00,A,A*73,5,8,9,None,11469.879518072292,360216.2162162163,525132.0754716988,0.22535516529973712,0.11350245692089973,0.07689043751244974,0.13858268657769554,21.728945845981162,55.345215094072415,1009.4939341932737,31.31802284927126,252.6669,1288
$GPGLL,5043.47295,N,00157.03005,W,072641.00,A,A*77,5,8,9,None,11543.859649122807,349263.15789473685,525132.0754716988,0.20499430772308683,0.07921856871892186,0.07910001134306342,0.12110429592835736,21.75306556399794,55.37498609913218,1009.4862514677391,31.382177925762974,194.3881,1247
$GPGLL,5043.47303,N,00157.02984,W,072642.00,A,A*7B,5,8,9,None,11543.859649122807,338871.7948717949,519700.9345794397,0.23860688682548534,0.1490642490144135,0.1454138149959412,0.1776949836119467,21.773326132073997,55.40463110918522,1009.475680905683,31.4704487065763,104.47035,1235
$GPGLL,5043.47314,N,00157.02959,W,072643.00,A,A*7C,5,8,9,None,11469.879518072292,341419.35483870975,514370.3703703706,0.2388082805927045,0.14584198498601553,0.14190253937987438,0.1755176016528648,21.789084354808278,55.457305100442206,1009.4595303434165,31.605317411968233,120.8255,1246
$GPGLL,5043.47287,N,00157.02929,W,072644.00,A,A*77,5,8,9,None,11469.879518072292,351947.01986754977,514370.3703703706,0.2578609691771494,0.15424926972623548,0.1480510891770712,0.18672044269348534,21.795516283239362,55.41695958194506,1009.4499579047385,31.685254921847925,138.0104,1078
$GPGLL,5043.47223,N,00157.02859,W,072645.00,A,A*7E,5,8,9,None,11543.859649122807,351947.01986754977,509137.6146788992,0.21788039754538163,0.1596066169674202,0.2615862673053691,0.21302442727272367,21.795194686807008,55.32423707196853,1009.4345078973637,31.814276120422306,244.64425,1083
$GPGLL,5043.47127,N,00157.02714,W,072646.00,A,A*7C,5,8,9,None,11469.879518072292,380879.43262411345,509137.6146788992,0.22325369510641588,0.1822536144373733,0.29373806379753675,0.23308179111377533,21.7771852884096,54.981757249506636,1009.4155166624573,31.972871885274923,270.24295,1123
$GPGLL,5043.47009,N,00157.02526,W,072647.00,A,A*73,5,8,9,None,11543.859649122807,393635.0364963503,509137.6146788992,0.23357794569018656,0.18267547481229165,0.29271225632227404,0.23632189227491743,21.73409138528814,54.910828276167734,1009.4292063635278,31.858548975838975,233.2825,1187
$GPGLL,5043.46811,N,00157.02436,W,072648.00,A,A*7C,4,8,8,None,11543.859649122807,384000.00000000006,514370.3703703706,0.24998819893041094,0.11682316693071994,0.16766723426378802,0.17815953337497295,21.69485665542343,55.02544009312535,1009.4689977370432,31.52625771589631,116.85535,1213
$GPGLL,5043.46612,N,00157.02456,W,072649.00,A,A*76,4,8,8,None,11543.859649122807,410666.66666666674,514370.3703703706,0.1990650674563548,0.052448301368478875,0.04256958272214702,0.09802765051566022,21.654657154669827,55.12840914978176,1009.4956147460056,31.303989342055505,61.3312,1207
$GPGLL,5043.46321,N,00157.02709,W,072650.00,A,A*72,4,8,8,None,11618.002195389681,421519.3798449612,514370.3703703706,0.19365789843396633,0.04988587279676828,0.036611011219951195,0.09338492748356193,21.632145442006937,55.23193956881964,1009.5357298466145,30.969012576918278,91.67105,1217
$GPGLL,5043.46067,N,00157.03010,W,072651.00,A,A*7C,4,7,8,None,11618.002195389681,425250.0000000001,519700.9345794397,0.24595537743814347,0.15609364936220127,0.22464790768981913,0.20889897816338795,21.628929483509843,55.283965958949544,1009.5687119886567,30.693606876433424,102.51465,1212
$GPGLL,5043.45842,N,00157.03312,W,072652.00,A,A*72,4,7,8,None,11692.307692307691,436800.0,525132.0754716988,0.22926134897997746,0.08521129912205729,0.056938377008142936,0.12380367503672589,21.636004592353515,55.31316303505689,1009.6149226412962,30.307753435362546,152.58755,1241
$GPGLL,5043.45634,N,00157.03688,W,072653.00,A,A*7A,4,7,8,None,11766.776677667765,432888.8888888893,525132.0754716988,0.2646059979026086,0.15483832675480508,0.08939075532434376,0.16961169332725246,21.6459740648399,55.29611602078511,1009.6409052394104,30.090808118872385,141.3286,1239
$GPGLL,5043.45427,N,00157.04265,W,072654.00,A,A*7D,4,7,8,None,11766.776677667765,440774.1935483872,530666.6666666667,0.2338574576350454,0.04633890225219498,0.020142253806890994,0.10011287123137713,21.657873114076416,55.232788873413064,1009.6849207984322,29.72330440263736,145.41745,1238
$GPGLL,5043.45173,N,00157.04675,W,072655.00,A,A*7D,4,7,8,None,11841.409691629955,461647.05882352975,530666.6666666667,0.21796478187090496,0.06748693101764297,0.03238438770276807,0.105945366863772,21.6697721648693,55.175250252422934,1009.7173250253317,29.452756687908682,143.87675,1241
$GPGLL,5043.44898,N,00157.05129,W,072656.00,A,A*7C,4,7,8,None,11841.409691629955,453090.9090909091,536307.6923076926,0.19768600599701866,0.1010090193672079,0.14679092586933937,0.14849531707785532,21.67459610482331,55.19858171935041,1009.7317174658525,29.332594313944284,117.44795,1234
$GPGLL,5043.44613,N,00157.05548,W,072657.00,A,A*73,3,6,7,None,11841.409691629955,453090.9090909091,536307.6923076926,0.21912771308954404,0.1592062462737891,0.25970113505610687,0.21267836480647997,21.685530369666072,55.20473500745381,1009.7675481230049,29.033450459936955,118.69235,1183
$GPGLL,5043.44314,N,00157.06000,W,072658.00,A,A*74,3,6,7,None,11916.207276736492,457333.3333333335,542058.252427185,0.22229788127487607,0.15641823964692958,0.25415780243375796,0.21095797445185452,21.686816753851623,55.17581046877234,1009.7961600983035,28.7945802828514,106.9002,1225
$GPGLL,5043.43981,N,00157.06474,W,072659.00,A,A*73,3,6,7,None,11916.207276736492,457333.3333333335,542058.252427185,0.28483130154239267,0.17036391295400713,0.08345363767575283,0.17954961739071754,21.684565581538845,55.12938916544798,1009.8456268436753,28.381614724773847,96.82655,1220
$GPGLL,5043.43666,N,00157.06960,W,072700.00,A,A*70,3,6,6,None,11991.169977924943,457333.3333333335,542058.252427185,0.2924630495007844,0.18193671262263397,0.09033299572893524,0.18824425261745123,21.674917700829337,55.05375895500597,1009.8732441039573,28.15106337620085,86.27865,1212
$GPGLL,5043.43328,N,00157.07426,W,072701.00,A,A*70,3,6,6,None,12066.298342541435,444813.0081300816,542058.252427185,0.3073717992370939,0.1614557033977231,0.10275938581670553,0.19052896281717416,21.67073695283964,55.0710028421387,1009.9063348995402,27.874825190454185,104.05575,1236
$GPGLL,5043.42988,N,00157.07841,W,072702.00,A,A*7F,3,6,6,None,12066.298342541435,448918.0327868857,542058.252427185,0.2568995424440809,0.13136893150982654,0.08452700931070704,0.15759849442153817,21.674917700829337,55.09431291812285,1009.9362838125152,27.624821400265525,117.80335,1220
$GPGLL,5043.42734,N,00157.08236,W,072703.00,A,A*72,3,6,6,None,12066.298342541435,440774.1935483872,542058.252427185,0.2607101841489772,0.08882807480568648,0.05258384387570599,0.13404070094345655,21.68263600531509,55.0945651942905,1009.9752406062935,27.29963173181148,157.0606,1223
$GPGLL,5043.42505,N,00157.08497,W,072704.00,A,A*78,3,6,6,None,12141.592920353984,440774.1935483872,547921.5686274517,0.25745917232659354,0.12736111917108106,0.11262988665753208,0.16581672605173556,21.689067926220105,55.07160103606643,1010.003834205271,27.060954718302213,88.76725,1208
$GPGLL,5043.42321,N,00157.08795,W,072705.00,A,A*78,3,6,6,None,12141.592920353984,417846.15384615416,542058.252427185,0.2467679709375806,0.14394146298504115,0.21883319075217256,0.2031808748915981,21.6926054829117,55.089097391446664,1010.04104479596,26.75035798635968,105.4187,1218
$GPGLL,5043.42151,N,00157.09120,W,072706.00,A,A*77,3,4,5,None,12141.592920353984,407157.8947368421,536307.6923076926,0.23869919748345766,0.16568161772000936,0.2662435578193438,0.22354145767427025,21.69517825150108,55.04862555726929,1010.0551369377102,26.632733323955254,198.00295,1204
$GPGLL,5043.41967,N,00157.09449,W,072707.00,A,A*72,3,4,5,None,12141.592920353984,425250.0000000001,536307.6923076926,0.2392287240241589,0.09024987721325471,0.03765839713142227,0.12237899945627863,21.70257496160084,55.153153782076885,1010.0720113332397,26.49188742013469,269.61545,1261
$GPGLL,5043.41811,N,00157.09639,W,072708.00,A,A*78,3,4,5,None,12217.054263565893,429039.3700787404,536307.6923076926,0.23008855391206925,0.10878105926957558,0.1425124116011135,0.16046067492758612,21.711579652968794,55.153449171274175,1010.0831771099348,26.398690823388524,108.38135,1221
$GPGLL,5043.41681,N,00157.09839,W,072709.00,A,A*70,3,4,5,None,12217.054263565893,407157.8947368421,530666.6666666667,0.24780938384659168,0.16854217418913772,0.2587949626180342,0.22504884021792124,21.72540828787644,55.30454198503621,1010.0904885503646,26.337665393842965,120.94395,1231
$GPGLL,5043.41643,N,00157.09892,W,072710.00,A,A*77,3,4,5,None,12217.054263565893,384000.00000000006,525132.0754716988,0.2896213639560793,0.16414887253771263,0.07481975261498007,0.17619666303625733,21.745025657281804,55.397893741397354,1010.0954965445028,26.295866040167056,139.0176,1247
$GPGLL,5043.41665,N,00157.09845,W,072711.00,A,A*78,3,4,5,None,12217.054263565893,374769.2307692309,519700.9345794397,0.2739744973411571,0.13917098046333598,0.07589094878824548,0.1630121421975795,21.761427067736463,55.479555417725166,1010.1052856736083,26.214161303371423,108.55915,1233
$GPGLL,5043.41658,N,00157.09821,W,072712.00,A,A*77,2,3,4,None,12217.054263565893,371777.7777777778,514370.3703703706,0.2634915640019366,0.1539121437428893,0.14576046644719123,0.18772139139733904,21.777828481148116,55.578602766373315,1010.1051188992449,26.215553276319078,459.6625,1206
$GPGLL,5043.41653,N,00157.09797,W,072713.00,A,A*7F,2,3,4,None,12217.054263565893,363047.61904761917,509137.6146788992,0.43196534714223606,0.22993550726927056,0.09677996794998778,0.25289360745383144,21.79680266898015,55.52130058373733,1010.0941556107915,26.307058161905992,90.6042,1187
$GPGLL,5043.41631,N,00157.09786,W,072714.00,A,A*7C,2,3,4,None,12141.592920353984,341419.35483870975,504000.0000000006,0.39536547312951686,0.1404885226906369,0.17630709947548862,0.23738703176521414,21.80645056261585,55.289841670635504,1010.0731685394553,26.482228610309576,243.5737,1191
$GPGLL,5043.41637,N,00157.09774,W,072715.00,A,A*76,2,3,4,None,12141.592920353984,360216.2162162163,504000.0000000006,0.5719510980544743,0.11778952172043594,0.053405201425387384,0.24771527373343258,21.79841065118171,55.13311620831793,1010.0353489404085,26.79790068158641,121.8921,1007
$GPGLL,5043.41659,N,00157.09749,W,072716.00,A,A*73,2,3,4,None,12217.054263565893,374769.2307692309,504000.0000000006,0.6343334633876758,0.1779857428700085,0.22252670924294993,0.3449486385002114,21.780722848527716,55.04561580359654,1010.0151986243859,26.96609495013505,128.8845,1207
$GPGLL,5043.41653,N,00157.09772,W,072717.00,A,A*70,2,3,4,None,12217.054263565893,390376.8115942032,504000.0000000006,0.44527427173623974,0.20358874238908262,0.26860777857370066,0.305823597566341,21.77429092114255,55.056996105942225,1010.016468877767,26.955492091358135,166.8916,1142
$GPGLL,5043.41589,N,00157.09899,W,072718.00,A,A*71,2,3,4,None,12292.682926829268,387165.4676258995,504000.0000000006,0.42683907864638543,0.17749646803703345,0.1539326358037505,0.25275606082905644,21.763999838272163,55.01609849550584,1010.0314424453442,26.83050790229143,270.33425,1199
$GPGLL,5043.41472,N,00157.10045,W,072719.00,A,A*74,2,3,4,None,12292.682926829268,410666.66666666674,509137.6146788992,0.344629389641675,0.13984967064514997,0.19046056585193533,0.22497987537958677,21.756603123178138,54.97529595241575,1010.0427744664441,26.73592065536137,185.2606,1252
$GPGLL,5043.41298,N,00157.10339,W,072720.00,A,A*74,2,3,4,None,12292.682926829268,421519.3798449612,509137.6146788992,0.428385511144936,0.15273450211675363,0.17951293404615,0.2535443157692799,21.747598427353658,54.89967447394582,1010.0498606397935,26.676773511685145,147.90635,1232
$GPGLL,5043.41140,N,00157.10676,W,072721.00,A,A*7D,2,3,4,None,12368.479467258603,429039.3700787404,509137.6146788992,0.46053175971086685,0.15374877170658513,0.15479145138744885,0.2563573276016336,21.734734577721973,54.8297252709055,1010.0507392528011,26.669439894323283,164.62305,1219
$GPGLL,5043.40975,N,00157.11079,W,072722.00,A,A*79,2,3,4,None,12368.479467258603,432888.8888888893,514370.3703703706,0.4097301662122495,0.17678199983175724,0.07146824585785924,0.21932680396728865,21.717368383604573,54.82916837401614,1010.0543298662736,26.639469773349628,206.81855,1231
$GPGLL,5043.40805,N,00157.11542,W,072723.00,A,A*73,2,3,4,None,12444.444444444445,425250.0000000001,519700.9345794397,0.480591222448764,0.1974149217641824,0.10286521820198588,0.26029045413831076,21.70225336549704,54.90980139882929,1010.0217235593415,26.91163115638225,157.5061,1307
$GPGLL,5043.40636,N,00157.12034,W,072724.00,A,A*7D,2,3,4,None,12444.444444444445,440774.1935483872,519700.9345794397,0.4078118913152888,0.17585137788804625,0.13962679957922844,0.2410966895941878,21.68810313805536,54.9267264636101,1010.0404389621486,26.755414805869325,142.09895,1255
$GPGLL,5043.40449,N,00157.12550,W,072725.00,A,A*71,2,3,4,None,12520.578420467185,444813.0081300816,525132.0754716988,0.449265341448791,0.16828094704207236,0.17483589566794677,0.2641273947196034,21.683600793421853,54.90919960174675,1010.0713534526994,26.497378531027167,133.09175,1264
$GPGLL,5043.40272,N,00157.13066,W,072726.00,A,A*7D,2,3,4,None,12520.578420467185,425250.0000000001,525132.0754716988,0.4599586052542116,0.17171452746737687,0.061077334865372236,0.23091682252898693,21.68038483310577,54.920683363425155,1010.0595447261527,26.59594255132615,121.1218,1254
$GPGLL,5043.40106,N,00157.13603,W,072727.00,A,A*79,2,3,4,None,12596.881959910914,432888.8888888893,530666.6666666667,0.47812158452583925,0.12672576415618306,0.06438237027794132,0.22307657298665454,21.677490468918496,54.88582739374573,1010.0814324178226,26.41325306636302,111.40355,1253
$GPGLL,5043.39937,N,00157.14155,W,072728.00,A,A*71,2,3,4,None,12673.35562987737,421519.3798449612,530666.6666666667,0.35386809500731686,0.12707193019132124,0.12481077945829595,0.2019169348856447,21.676525680876534,54.86841496624322,1010.1230132759749,26.066199917280798,128.88435,1263
$GPGLL,5043.39817,N,00157.14718,W,072729.00,A,A*7C,2,3,4,None,12750.000000000002,403701.4925373137,530666.6666666667,0.35724566349224385,0.12467584387437569,0.13260732431659522,0.2048429438944049,21.68006323708041,54.89749788635578,1010.1784726922617,25.603327880737087,149.92085,1251
$GPGLL,5043.39699,N,00157.15309,W,072730.00,A,A*79,2,3,4,None,12826.815642458103,414229.007633588,530666.6666666667,0.3439865934133223,0.11420217869580876,0.10492452492999334,0.1877044323463748,21.683600793421853,54.93237479768509,1010.2024122203619,25.40353159252166,175.87585,1261
$GPGLL,5043.39594,N,00157.15919,W,072731.00,A,A*7D,2,3,4,None,12903.803131991051,414229.007633588,536307.6923076926,0.32046442423127475,0.11113475653520564,0.08990444071170133,0.17383454049272726,21.694213463271534,54.97327494630992,1010.2228030486617,25.2333553295484,158.3356,1257
$GPGLL,5043.39480,N,00157.16555,W,072732.00,A,A*7D,2,3,4,None,12980.963045912655,436800.0,542058.252427185,0.3149683225805549,0.18205028961123532,0.2777788147772193,0.25826580898966983,21.710614864565308,54.96221825365625,1010.2309391107858,25.16545476177646,347.70085,1264
$GPGLL,5043.39403,N,00157.17198,W,072733.00,A,A*73,2,3,4,None,12980.963045912655,444813.0081300816,536307.6923076926,0.2827277553789846,0.12696967015590907,0.11424320034131343,0.17464687529206901,21.7244434993263,54.910517144902926,1010.2548446433678,24.965950583022536,415.95895,1265
$GPGLL,5043.39393,N,00157.17911,W,072734.00,A,A*73,2,3,4,None,12903.803131991051,444813.0081300816,536307.6923076926,0.2992722788380695,0.14964836579812324,0.06369819448843543,0.17087294637487604,21.741488098551805,54.893683024688414,1010.2971971363835,24.612506251337766,513.64565,1287
$GPGLL,5043.39417,N,00157.18585,W,072735.00,A,A*77,2,3,4,None,12903.803131991051,436800.0,536307.6923076926,0.28518541704507844,0.16458613244365508,0.15940128528769296,0.20305761159214217,21.758211104669158,54.94057976012913,1010.3075090502946,24.526452034841444,340.37985,1266
$GPGLL,5043.39434,N,00157.19304,W,072736.00,A,A*7B,2,3,4,None,12903.803131991051,444813.0081300816,542058.252427185,0.3200750179793717,0.1867440700007334,0.07994316805876013,0.19558741867962173,21.770431764929732,54.923589739343186,1010.3172140176418,24.44546351327056,279.0757,1252
$GPGLL,5043.39501,N,00157.20014,W,072737.00,A,A*75,2,3,4,None,12903.803131991051,440774.1935483872,536307.6923076926,0.24267043460464605,0.12943418253848052,0.1643507616625988,0.17881845960190845,21.77815007751908,54.85429764487738,1010.3329493837779,24.31415229884778,231.82405,1249
$GPGLL,5043.39560,N,00157.20746,W,072738.00,A,A*7D,2,3,4,None,12826.815642458103,440774.1935483872,536307.6923076926,0.27041159539567483,0.12292513820962943,0.11419428331373635,0.1691770056396802,21.77879327026442,54.819547175317936,1010.3406210412784,24.250133120285774,58.13095,1244
$GPGLL,5043.39593,N,00157.21435,W,072739.00,A,A*76,2,3,4,None,12903.803131991051,440774.1935483872,542058.252427185,0.30706291948063674,0.17855107728878608,0.28342525295832,0.2563464165759143,21.778471673891183,54.79056069657351,1010.3351259843835,24.295988754707064,56.6493,1240
$GPGLL,5043.39571,N,00157.21965,W,072740.00,A,A*7C,2,3,4,None,12903.803131991051,440774.1935483872,542058.252427185,0.36118290717597,0.16922450955622018,0.21099940116419097,0.24713560596546036,21.7771852884096,54.81370048705455,1010.3048497062534,24.54864452675542,90.9597,1241
$GPGLL,5043.39216,N,00157.22313,W,072741.00,A,A*73,2,3,4,None,12903.803131991051,432888.8888888893,542058.252427185,0.5338132043293863,0.1515210584805877,0.1494475482656714,0.2782606036918818,21.781687637674715,54.81963985216278,1010.3187296962445,24.43281514332692,102.8112,1251
$GPGLL,5043.38744,N,00157.22489,W,072742.00,A,A*77,3,4,4,None,12903.803131991051,444813.0081300816,542058.252427185,0.2854083599144922,0.10271679646805487,0.12234726714554497,0.17015747450936403,21.792300318966976,54.7967979934966,1010.3142323983574,24.47034523399212,119.10705,1270
$GPGLL,5043.38306,N,00157.22505,W,072743.00,A,A*71,3,4,4,None,12903.803131991051,448918.0327868857,542058.252427185,0.3274494429631536,0.14772415545544326,0.1253406203497191,0.2001714062561053,21.800661826311647,54.814451810691025,1010.2845423719832,24.71811282129614,137.1806,1262
$GPGLL,5043.37904,N,00157.22434,W,072744.00,A,A*72,3,4,4,None,12903.803131991051,457333.3333333335,547921.5686274517,0.30111719870360654,0.13013639375313293,0.1545270450136811,0.19526021249014017,21.805807369674973,54.814616454311256,1010.2944790811572,24.63518888195432,158.98715,1258
$GPGLL,5043.37542,N,00157.22312,W,072745.00,A,A*7E,3,4,5,None,12980.963045912655,457333.3333333335,547921.5686274517,0.28517954196241274,0.12899096422531708,0.15969672219731135,0.19128907612834709,21.81030972035662,54.756803658034315,1010.306699773577,24.53320552496149,174.74995,1245
$GPGLL,5043.37157,N,00157.22206,W,072746.00,A,A*79,3,4,5,None,12903.803131991051,453090.9090909091,547921.5686274517,0.2927923616961247,0.1282091046605924,0.08208776775593558,0.16769641137088423,21.81899282587192,54.75128447170437,1010.3123714421916,24.485875010612926,152.29125,1245
$GPGLL,5043.36742,N,00157.22149,W,072747.00,A,A*73,3,4,5,None,12980.963045912655,453090.9090909091,547921.5686274517,0.31675403199741614,0.11817989779340377,0.09689525072478994,0.1772763935052033,21.8257463529568,54.74570359710237,1010.3016641274656,24.575228562509732,130.1884,1244
$GPGLL,5043.36329,N,00157.22068,W,072748.00,A,A*77,3,4,5,None,12980.963045912655,436800.0,547921.5686274517,0.3269906772011016,0.19570237188283185,0.29316033973216893,0.27195112960536744,21.831535090857166,54.75168388324927,1010.3010199645151,24.580604187575865,127.2253,1242
$GPGLL,5043.35881,N,00157.21982,W,072749.00,A,A*72,3,4,5,None,12980.963045912655,440774.1935483872,547921.5686274517,0.374581867168958,0.18290608610935438,0.2576865725826954,0.27172484195366925,21.832821477107267,54.716948441894274,1010.3246610489904,24.383318027137673,189.44595,1254
$GPGLL,5043.35449,N,00157.21905,W,072750.00,A,A*7D,3,4,5,None,12980.963045912655,448918.0327868857,547921.5686274517,0.4634275574451153,0.18315753115119973,0.10666252708706281,0.25108253856112595,21.839253408630633,54.73454123521467,1010.3383266643749,24.269279414054218,125.50675,1264
$GPGLL,5043.35017,N,00157.21820,W,072751.00,A,A*75,3,5,5,None,12980.963045912655,448918.0327868857,547921.5686274517,0.6037859789800576,0.2602765136370195,0.2597472948325244,0.37460326248320047,21.849222903390547,54.71746936377228,1010.304582116576,24.550877591990044,165.6366,1257
$GPGLL,5043.34588,N,00157.21712,W,072752.00,A,A*7A,3,5,5,None,13058.295964125562,448918.0327868857,547921.5686274517,0.7264957494371318,0.21203175807120098,0.06046802422137454,0.3329985105765691,21.854046852860144,54.729215281399824,1010.2542622512354,24.97081090469705,149.62475,1279
$GPGLL,5043.34172,N,00157.21563,W,072753.00,A,A*7E,3,5,5,None,13058.295964125562,444813.0081300816,547921.5686274517,0.42055658398273166,0.1906652463005542,0.2633009364107837,0.2915075888980232,21.85308206294576,54.74077728018956,1010.2361162074405,25.122248856831163,148.0244,1261
$GPGLL,5043.33775,N,00157.21370,W,072754.00,A,A*7B,4,6,6,None,13058.295964125562,453090.9090909091,547921.5686274517,0.2847446133684988,0.1350319244976044,0.06816553829479738,0.1626473587203002,21.858870802585535,54.729368588820265,1010.2653405348315,24.87835808401378,127.40325,1244
$GPGLL,5043.33374,N,00157.21165,W,072755.00,A,A*79,4,6,6,None,13058.295964125562,457333.3333333335,547921.5686274517,0.2576833756814281,0.1474579175909931,0.2271131765809999,0.21075148995114037,21.86916189618796,54.68332289704172,1010.2735967945425,24.809456744045203,153.07685,1244
$GPGLL,5043.32978,N,00157.20944,W,072756.00,A,A*77,4,6,6,None,13058.295964125562,448918.0327868857,553900.99009901,0.3201511468656585,0.09522741831720749,0.10420902232856023,0.17319586250380872,21.880417781148594,54.63730483651766,1010.3016591483124,24.57527011419076,124.20335,1248
$GPGLL,5043.32587,N,00157.20733,W,072757.00,A,A*74,4,6,7,None,13135.802469135802,429039.3700787404,553900.99009901,0.2365253650776479,0.08884588307147104,0.07949110686193543,0.13495411833701812,21.88395534528099,54.61422880513908,1010.2791380303771,24.763213472100205,124.7957,1254
$GPGLL,5043.32181,N,00157.20499,W,072758.00,A,A*7A,4,6,7,None,13135.802469135802,432888.8888888893,553900.99009901,0.296564118417302,0.12380947441950875,0.16295051419228102,0.19444136900969725,21.876880217153758,54.58502149670839,1010.2926498446101,24.650454198166862,115.07725,1243
$GPGLL,5043.31774,N,00157.20298,W,072759.00,A,A*73,4,6,7,None,13213.483146067416,421519.3798449612,553900.99009901,0.2755733075106029,0.08471653494195983,0.0751685348159938,0.14515279242285214,21.86723231604883,54.57312451538145,1010.3003632049788,24.586084935675405,156.49845,1287
$GPGLL,5043.31393,N,00157.20047,W,072800.00,A,A*7D,4,6,6,None,13213.483146067416,425250.0000000001,547921.5686274517,0.29305487951832043,0.19272181011273715,0.29637443789486984,0.26071704250864247,21.86208676921124,54.567166081244515,1010.3518261866844,24.156628062423337,145.7137,1282
$GPGLL,5043.31007,N,00157.19834,W,072801.00,A,A*74,4,6,6,None,13213.483146067416,440774.1935483872,553900.99009901,0.2499165594756078,0.17675003276920945,0.28188558220013815,0.23618405814831847,21.86240836588006,54.55558268439838,1010.4071052451358,23.695345885813893,231.29155,1266
$GPGLL,5043.30618,N,00157.19613,W,072802.00,A,A*75,4,6,6,None,13213.483146067416,448918.0327868857,553900.99009901,0.2612901911829872,0.14421137004359588,0.21819895845185192,0.20790017322614499,21.86401634924123,54.538242768581966,1010.4760701991034,23.119888898632045,81.66595,1262
$GPGLL,5043.30232,N,00157.19384,W,072803.00,A,A*73,4,7,7,None,13213.483146067416,457333.3333333335,553900.99009901,0.22646649564358565,0.13302264248336731,0.1961574309749658,0.18521552303397293,21.86401634924123,54.50346172794354,1010.5059403844463,22.870656133097253,28.97645,1235
$GPGLL,5043.29824,N,00157.19167,W,072804.00,A,A*7E,4,7,7,None,13291.338582677166,461647.05882352975,560000.0000000003,0.2549497270332063,0.12389749762753417,0.054667546711632875,0.1445049237907911,21.86723231604883,54.451389681976316,1010.5559201251226,22.453645312666232,38.27965,1220
$GPGLL,5043.29418,N,00157.18951,W,072805.00,A,A*70,4,7,7,None,13291.338582677166,466033.8983050852,560000.0000000003,0.2766627187889377,0.15508527599198388,0.14917576258451365,0.1936412524551451,21.867875509423992,54.45140971843622,1010.6034201261351,22.057339918067687,34.78325,1236
$GPGLL,5043.29000,N,00157.18792,W,072806.00,A,A*7F,4,6,6,None,13369.369369369371,448918.0327868857,560000.0000000003,0.26796373940368623,0.09789816756628993,0.05532264107193879,0.14039484934730498,21.87044828297012,54.46308392847253,1010.6490467902762,21.67667848279963,39.0496,1244
$GPGLL,5043.28578,N,00157.18660,W,072807.00,A,A*79,4,6,6,None,13369.369369369371,461647.05882352975,566222.2222222228,0.35463566220828696,0.11382209342125525,0.14016528054639002,0.20287434539197743,21.869805089576765,54.55001797928706,1010.7442615462537,20.8823503950758,90.18915,1253
$GPGLL,5043.28151,N,00157.18611,W,072808.00,A,A*7F,4,6,6,None,13447.576099210824,466033.8983050852,566222.2222222228,0.38428431840986915,0.07951857479974364,0.060787627820175855,0.17486350700992956,21.864337945916873,54.63679726287934,1010.8117988949723,20.318957511937736,99.9667,1251
$GPGLL,5043.27713,N,00157.18661,W,072809.00,A,A*76,4,6,6,None,13447.576099210824,479652.1739130438,566222.2222222228,0.37503271693974033,0.09697071763639438,0.09257156565560948,0.18819166674391474,21.853725256220876,54.68283395105812,1010.869393822627,19.83852784257479,121.8922,1259
$GPGLL,5043.27327,N,00157.18714,W,072810.00,A,A*7E,4,6,6,None,13525.959367945825,475034.48275862087,572571.4285714285,0.37128959837794323,0.1566823385500882,0.13901622534903582,0.22232938742568908,21.84118298817632,54.67084406052285,1010.9321776387519,19.314840166042682,142.8101,1278
$GPGLL,5043.26990,N,00157.18764,W,072811.00,A,A*7F,4,6,6,None,13525.959367945825,479652.1739130438,579051.5463917528,0.3140994578873332,0.12619686847479372,0.11399288061845432,0.1847630689935271,21.822851984144744,54.61809887240482,1010.9972556173077,18.772044387995155,120.1735,1268
$GPGLL,5043.26470,N,00157.18987,W,072812.00,A,A*7C,3,5,5,None,13525.959367945825,484350.877192983,579051.5463917528,0.24827897093196297,0.11635867389133372,0.1653053962578773,0.17664768036039133,21.807415352035697,54.63499960418384,1011.0620102132722,18.231973926228797,123.492,1268
$GPGLL,5043.25921,N,00157.19160,W,072813.00,A,A*77,3,5,5,None,13525.959367945825,479652.1739130438,579051.5463917528,0.3364533772334859,0.1180127677829857,0.08368519239320978,0.17938377913656045,21.799053844070293,54.68689719745354,1011.0833946307735,18.053628378534704,139.3139,1254
$GPGLL,5043.25387,N,00157.19328,W,072814.00,A,A*78,3,5,5,None,13604.5197740113,475034.48275862087,579051.5463917528,0.29364529781780424,0.09362226850713458,0.08535326554542363,0.1575402772901208,21.784260408783393,54.79074567113809,1011.0828080021741,18.0585208067528,157.4466,1274
$GPGLL,5043.24792,N,00157.19498,W,072815.00,A,A*74,3,5,5,None,13604.5197740113,479652.1739130438,585666.6666666671,0.35087945297138295,0.1572093463653519,0.06647144090866605,0.19152008008180033,21.767858994212133,54.84237724612571,1011.1177939522369,17.766745240661667,161.00205,1263
$GPGLL,5043.24201,N,00157.19639,W,072816.00,A,A*71,3,5,5,None,13604.5197740113,479652.1739130438,585666.6666666671,0.30377095280659744,0.1402827264645175,0.13145966760390743,0.19183778229167414,21.756281526883345,54.91154373391224,1011.1522481915886,17.479412020707287,180.4387,1258
$GPGLL,5043.23594,N,00157.19786,W,072817.00,A,A*79,3,5,5,None,13683.257918552037,479652.1739130438,585666.6666666671,0.2675780271775925,0.13235560755059372,0.14676485158064198,0.18223282876960942,21.752100775154485,54.96935555421621,1011.1554718332537,17.452528670975063,173.5648,1269
$GPGLL,5043.22976,N,00157.19869,W,072818.00,A,A*79,3,5,5,None,13683.257918552037,479652.1739130438,585666.6666666671,0.25081712935697437,0.11475507248535721,0.15427177307802317,0.17328132497345158,21.749206408685517,55.06197376045301,1011.2088829913195,17.00711989650209,167.5206,1267
$GPGLL,5043.17173,N,00157.20411,W,072828.00,A,A*78,4,6,6,None,13762.174405436013,475034.48275862087,585666.6666666671,0.3955701593715017,0.17280977620785729,0.16758262942916383,0.24532085500284093,21.744060868523615,55.19507348451066,1011.1906425050335,17.159229652827754,166.4539,1262
$GPGLL,5043.16656,N,00157.20493,W,072829.00,A,A*72,4,6,6,None,13762.174405436013,479652.1739130438,592421.0526315796,0.34659005795321973,0.0969979341989095,0.03104784375352855,0.15821194530188593,21.727981057393503,55.24089569319712,1011.2327752281876,16.807882827508053,110.33665,1257
$GPGLL,5043.16159,N,00157.20583,W,072830.00,A,A*72,3,5,5,None,13762.174405436013,479652.1739130438,592421.0526315796,0.4245355562070071,0.11104915724999131,0.045045624553172126,0.19354344600339016,21.715117210535777,55.29261384486128,1011.2867201604049,16.35805072007588,126.5731,1252
$GPGLL,5043.15730,N,00157.20730,W,072831.00,A,A*73,3,5,5,None,13841.269841269841,489132.7433628319,592421.0526315796,0.2591809760686213,0.12730343011683454,0.1150635051256068,0.16718263710368753,21.706755711053688,55.33868436503104,1011.3545497213019,15.792466046139594,248.3541,1265
$GPGLL,5043.15399,N,00157.20989,W,072832.00,A,A*7B,2,4,4,None,13841.269841269841,489132.7433628319,599319.1489361702,0.24388309644050202,0.1331044343059442,0.1479914782481544,0.1749930029982002,21.702896557705778,55.39069578235011,1011.4047429257247,15.37395875258296,391.1722,1282
$GPGLL,5043.15135,N,00157.21155,W,072833.00,A,A*76,2,4,4,None,13841.269841269841,475034.48275862087,592421.0526315796,0.2465391755381781,0.18727461981346152,0.29556980160060525,0.2431278656507483,21.70482613435927,55.373380251244214,1011.4294187608882,15.168219596872026,376.93155,1292
$GPGLL,5043.14865,N,00157.21183,W,072834.00,A,A*77,2,4,4,None,13920.544835414303,453090.9090909091,592421.0526315796,0.2671271350002318,0.09564770852178292,0.11278594116392175,0.15852026156197882,21.707720499416247,55.448789200392696,1011.4523305401688,14.977192208988924,295.1743,1272
$GPGLL,5043.14576,N,00157.21027,W,072835.00,A,A*76,2,4,4,None,14000.000000000002,453090.9090909091,585666.6666666671,0.49668886506795495,0.24391327948642974,0.2983626330590639,0.3463215925378162,21.708042095539373,55.51252472220724,1011.4329394656412,15.138865427366232,312.8245,1287
$GPGLL,5043.14291,N,00157.20817,W,072836.00,A,A*71,2,4,4,None,14000.000000000002,453090.9090909091,585666.6666666671,0.39207552780650606,0.14402660486190105,0.04108991833056407,0.1923973503329904,21.70643411493511,55.41978005717525,1011.4353268243456,15.118960672133499,307.0894,1273
$GPGLL,5043.14007,N,00157.20562,W,072837.00,A,A*72,2,4,4,None,14000.000000000002,440774.1935483872,585666.6666666671,0.4411115581922512,0.1778491270815789,0.15163355134153167,0.2568647455384539,21.697751020163217,55.26886526851975,1011.4561816694794,14.945083690356887,249.97245,1253
$GPGLL,5043.13730,N,00157.20317,W,072838.00,A,A*7D,2,4,4,None,14159.453302961276,429039.3700787404,579051.5463917528,0.3842607633210814,0.1919591523163185,0.12637967105933978,0.23419986223224656,21.684887177580116,55.25106014872711,1011.4885508317956,14.675211998257238,277.39665,1267
$GPGLL,5043.13443,N,00157.20109,W,072839.00,A,A*76,3,5,5,None,14159.453302961276,425250.0000000001,579051.5463917528,0.39009509106018475,0.19488877018231124,0.1607007540107811,0.24856153841775905,21.668164184941475,55.215749286549645,1011.4931346779434,14.636995624062347,268.5449,1271
$GPGLL,5043.13108,N,00157.19940,W,072840.00,A,A*7D,3,5,5,None,14079.63594994312,448918.0327868857,579051.5463917528,0.3919150114684704,0.1938124238794054,0.2163396271526952,0.26735568750019034,21.659481093822343,55.26180657158626,1011.4725120221456,14.808931628223696,233.91,1267
$GPGLL,5043.12744,N,00157.19799,W,072841.00,A,A*79,3,5,5,None,14159.453302961276,466033.8983050852,579051.5463917528,0.45616651281427206,0.24664341983500265,0.25692596995643685,0.31991196753523715,21.65497875060537,55.273243336759315,1011.4934618731036,14.634267742781176,227.36295,1270
$GPGLL,5043.12346,N,00157.19684,W,072842.00,A,A*71,2,4,4,None,14239.45267958951,466033.8983050852,579051.5463917528,0.6329483698017546,0.2642486226797647,0.07877465635634683,0.3253238829459554,21.6517627913011,55.261551311816234,1011.4965762199654,14.608302943064906,231.05195,1265
$GPGLL,5043.11938,N,00157.19571,W,072843.00,A,A*79,2,4,4,None,14239.45267958951,461647.05882352975,585666.6666666671,0.9123961886382118,0.32197874799396925,0.11307628092736725,0.4491504058531828,21.647260448466113,55.20926732470176,1011.4760521910888,14.779416192870757,218.8421,1249
$GPGLL,5043.11524,N,00157.19469,W,072844.00,A,A*77,2,4,4,None,14319.634703196349,432888.8888888893,579051.5463917528,0.694304335435805,0.23387315878920856,0.09851898284148679,0.3422321590221668,21.643079701747432,55.12223677083916,1011.4842480606338,14.711085125837938,175.4486,1269
$GPGLL,5043.11116,N,00157.19340,W,072845.00,A,A*7F,2,5,5,None,14480.54919908467,448918.0327868857,579051.5463917528,0.6709252141170856,0.2478118101918927,0.1744232179772639,0.36438674742874744,21.634718208886465,55.33049775332653,1011.4624845692681,14.892533922111605,148.795,1271
$GPGLL,5043.10714,N,00157.19204,W,072846.00,A,A*78,2,5,5,None,14804.597701149425,444813.0081300816,579051.5463917528,0.7432764967646776,0.28170473841566784,0.2155756039297876,0.4135189463700443,21.62281916267857,55.40540136370265,1011.4582472348567,14.927862225698593,154.7208,1265
$GPGLL,5043.10308,N,00157.19084,W,072847.00,A,A*7A,2,5,5,None,14967.741935483871,448918.0327868857,579051.5463917528,1.0627901825680623,0.31888139698430645,0.10643403634985552,0.49603520530074147,21.616065650658335,55.48626397667202,1011.4722512413807,14.811105837882826,166.0391,1266
$GPGLL,5043.09902,N,00157.18974,W,072848.00,A,A*7A,2,5,5,None,14967.741935483871,466033.8983050852,579051.5463917528,1.1023245061257998,0.2656181705581075,0.04650070929991656,0.4714811286612746,21.616065650658335,55.49784785526036,1011.4622981366239,14.894088280992989,172.85345,1258
$GPGLL,5043.09489,N,00157.18935,W,072849.00,A,A*70,3,6,6,None,15049.596309111881,475034.48275862087,585666.6666666671,0.5085695719234611,0.19011047682871257,0.14637185135889808,0.28168396670369056,21.625070333463395,55.45760601942995,1011.4967098627862,14.607188743292383,179.6089,1250
$GPGLL,5043.09064,N,00157.18973,W,072850.00,A,A*7D,3,6,6,None,15049.596309111881,479652.1739130438,585666.6666666671,0.45492359261312043,0.16048045661844354,0.13490024645283125,0.25010143189479844,21.63568299648505,55.43479270801265,1011.5038523258761,14.547641155745378,200.82315,1247
$GPGLL,5043.08651,N,00157.19044,W,072851.00,A,A*71,4,6,6,None,14967.741935483871,484350.877192983,585666.6666666671,0.3524507094762201,0.1764454498640667,0.2573252237185638,0.2620737943529502,21.643722893537802,55.41768455335383,1011.5383697218803,14.259870205776561,236.62345,1262
$GPGLL,5043.08245,N,00157.19144,W,072852.00,A,A*72,4,6,6,None,14886.07594936709,479652.1739130438,585666.6666666671,0.32077878840523727,0.10536221105188776,0.11045035610470434,0.17886378518727644,21.647582044375508,55.33092526946094,1011.5761063272861,13.94526985907409,212.04015,1255
$GPGLL,5043.07845,N,00157.19289,W,072853.00,A,A*74,4,6,6,None,14886.07594936709,466033.8983050852,585666.6666666671,0.33949301123066045,0.16098095721970204,0.14621728712965995,0.2155637518600075,21.640506934631436,55.22642291430651,1011.6061814670226,13.694547980300673,212.16945,1269
